[
    {
      "id": 1,
      "phone": "0983994220",
      "imageName": "fujiro",
      "name": "Fujiro",
      "address": " 8A/8B1 Thái Văn Lung, Bến Nghé, Quận 1, Thành phố Hồ Chí Minh, Vietnam ",
      "description": "The best Tonkatsu in town hands down.",
      "coordinates": {
          "latitude": 10.781055496227294, 
          "longitude": 106.70465150630748
      }
    },
    {
        "id": 2,
        "phone": "0981086585",
        "imageName": "micro",
        "name": "Micro Boulangerie",
        "address": " 25 Đường Số 38, Thảo Điền, Quận 2, Thành phố Hồ Chí Minh, Vietnam ",
        "description": "The best bread in town hands down.",
        "coordinates": {
            "latitude": 10.803262320835668,
            "longitude": 106.73265989774701
      }
    },
    {
        "id": 3,
        "phone": "02822536705",
        "imageName": "eddie",
        "name": "Eddie's New York Deli & Diner",
        "address": " 71 Đ. Thảo Điền, Thảo Điền, Thành Phố Thủ Đức, Thành phố Hồ Chí Minh, Vietnam",
        "description": "The best American food in town hands down.",
        "coordinates": {
            "latitude": 10.807320915709557,
            "longitude": 106.73493296515983
      }
    },
    {
        "id": 4,
        "phone": "02838277018",
        "imageName": "danbo",
        "name": "Danbo",
        "address": " 7b1 Thái Văn Lung, Bến Nghé, Quận 1, Thành phố Hồ Chí Minh, Vietnam ",
        "description": "The best ramen in town hands down.",
        "coordinates": {
            "latitude": 10.780846884079324,
            "longitude": 106.70485388050056
      }
    },
    {
        "id": 5,
        "phone": "0944862466",
        "imageName": "bonchon",
        "name": "Bonchon Chicken",
        "address": " 43 Lý Tự Trọng, Bến Nghé, Quận 1, Thành phố Hồ Chí Minh, Vietnam",
        "description": "The best Korean fried chicken in town hands down.",
        "coordinates": {
            "latitude": 10.782826210129663,
            "longitude": 106.70223552427606
      }
    },
    {
        "id": 6,
        "phone": "0907521017",
        "imageName": "maguro",
        "name": "Maguro",
        "address": " 8A/8B1 Thái Văn Lung, Bến Nghé, Quận 1, Thành phố Hồ Chí Minh, Vietnam ",
        "description": "The best omakase in town hands down.",
        "coordinates": {
            "latitude": 10.781055496227294,
            "longitude": 106.70465150630748
      }
    },
    {
        "id": 7,
        "phone": "02836201880",
        "imageName": "p'ti",
        "name": "P'ti Saigon",
        "address": " 52 Ngô Quang Huy, Thảo Điền, Thành Phố Thủ Đức, Thành phố Hồ Chí Minh, Vietnam",
        "description": "The best fine-dining for the price in town hands down.",
        "coordinates": {
            "latitude": 10.804654055019038,
            "longitude": 106.73582366235132
      }
    },
    {
        "id": 8,
        "phone": "0869388864",
        "imageName": "tomatito",
        "name": "Tomatito",
        "address": " 171 Calmette, Phường Nguyễn Thái Bình, Quận 1, Thành phố Hồ Chí Minh 712290, Vietnam ",
        "description": "The best Spanish food in town hands down.",
        "coordinates": {
            "latitude": 10.770673102324698,
            "longitude": 106.69795794186885
      }
    },
    {
        "id": 9,
        "phone": "02838218661",
        "imageName": "quince",
        "name": "Quince",
        "address": " 37bis Đ. Ký Con, Phường Nguyễn Thái Bình, Quận 1, Thành phố Hồ Chí Minh, Vietnam",
        "description": "The best overall high-end food in town hands down.",
        "coordinates": {
            "latitude": 10.76699991496871,
            "longitude": 106.6994741572109
      }
    },
    {
        "id": 10,
        "phone": "0799991811",
        "imageName": "sol",
        "name": "Sol Kitchen & Bar",
        "address": " 115 Lý Tự Trọng, Phường Bến Thành, Quận 1, Thành phố Hồ Chí Minh, Vietnam",
        "description": "The best Mexican-fusion food in town hands down.",
        "coordinates": {
            "latitude": 10.774105922353622,
            "longitude": 106.69747258544116
      }
    },
    {
        "id": 11,
        "phone": "0345557803",
        "imageName": "kiyota",
        "name": "Kiyota",
        "address": " 53 Phạm Viết Chánh, P. 19, Q. Bình Thạnh, Tp. Hồ Chí Minh, phường 19, Bình Thạnh, Thành phố Hồ Chí Minh, Vietnam ",
        "description": "The best omakase for the price in town hands down.",
        "coordinates": {
            "latitude": 10.79123931982896,
            "longitude": 106.71005464187003
      }
    },
    {
        "id": 12,
        "phone": "02838237188",
        "imageName": "cty",
        "name": "CTY Kitchen + Bar",
        "address": " Ground Floor & Behind the elevator lobby, 72-74 Nguyen Thi Minh Khai or Alleyway, 145 Hai Bà Trưng, Quận 3, Thành phố Hồ Chí Minh, Vietnam ",
        "description": "The best modern office food in town hands down.",
        "coordinates": {
            "latitude": 10.782940439500319,
            "longitude": 106.69747958650667
      }
    },
    {
        "id": 13,
        "phone": "0907292725",
        "imageName": "stoker",
        "name": "Stoker",
        "address": " 44 Mạc Thị Bưởi, Bến Nghé, Quận 1, Thành phố Hồ Chí Minh, Vietnam ",
        "description": "The best Western food for the price in town hands down.",
        "coordinates": {
            "latitude": 10.778239339104863,
            "longitude": 106.70500349099358
      }
    },
    {
        "id": 14,
        "phone": "02838231983",
        "imageName": "arirang",
        "name": "Arirang",
        "address": " Q1, 3rd Floor, 2 Đồng Khởi, Bến Nghé, Thành phố Hồ Chí Minh, Vietnam ",
        "description": "The best Korean food in town hands down.",
        "coordinates": {
            "latitude": 10.773499032128575,
            "longitude": 106.70627640147458
      }
    },
    {
        "id": 15,
        "phone": "02873097272",
        "imageName": "ysl",
        "name": "Yu Shang Lou",
        "address": " 975 Đ. Trần Hưng Đạo, Phường 5, Quận 5, Thành phố Hồ Chí Minh 72720, Vietnam ",
        "description": "The best Dimsum in town hands down.",
        "coordinates": {
            "latitude": 10.75482119404709,
            "longitude": 106.67662248049906
      }
    }
]

